格式化站点编号,站点名称,等价站点,线路名称,线路方向,单程序号,经度,纬度,在主城区
001_U_22,创业大厦,"['001_U_23', '001_U_21']",1,上行,22,118.011547,37.430997,True
001_U_23,城市花园,['001_U_22'],1,上行,23,118.013874,37.428323,True
001_U_24,远方汽贸城,[],1,上行,24,118.016912,37.423375,True
001_U_25,建翔小区,"['105_U_30', '001_U_26', '004_U_19']",1,上行,25,118.019205,37.416688,True
001_U_26,兴滨小区,"['001_U_25', '105_U_30', '113_U_29']",1,上行,26,118.020317,37.413552,True
001_U_27,桃李幸福家园,"['012_U_12', '005_U_57']",1,上行,27,118.023007,37.405606,True
001_U_28,华海白癜风医院,[],1,上行,28,118.024366,37.401637,True
001_U_29,沪滨医院,['004_U_25'],1,上行,29,118.026144,37.396368,True
001_U_30,一建公司,"['001_U_31', '023_U_27', '004_U_25', '023_U_25']",1,上行,30,118.02748,37.392582,True
001_U_31,海得汽配城,"['001_U_30', '023_U_28', '001_D_08']",1,上行,31,118.028053,37.389326,True
001_U_32,第一加油站,"['001_U_33', '001_D_08', '016_D_05', '006_U_41', '036_U_28', '020_U_28']",1,上行,32,118.028509,37.384184,True
001_U_33,东狮家具城,"['006_U_41', '001_U_32', '030_U_45', '004_U_32', '036_U_28']",1,上行,33,118.028754,37.381322,True
001_U_34,城建集团,"['011_U_30', '004_U_32', '001_D_02', '006_U_44']",1,上行,34,118.029111,37.376535,True
001_D_02,城建集团宿舍,"['001_U_34', '011_U_30', '004_U_32', '006_U_44']",1,下行,2,118.028185,37.375318,True
001_D_03,吕剧团,"['009_U_46', '007_U_15', '001_D_04']",1,下行,3,118.023497,37.374952,True
001_D_04,渤海国际,"['023_U_33', '001_D_03', '018_U_19', '004_U_31', '007_U_15', '001_D_05']",1,下行,4,118.020272,37.376349,True
001_D_05,百货大楼,"['018_U_19', '004_U_31', '001_D_04', '033_U_19', '006_U_40']",1,下行,5,118.01995,37.379706,True
001_D_06,银茂大酒店,"['004_U_28', '001_D_07', '022_U_40', '033_U_19', '006_U_38']",1,下行,6,118.01937,37.384312,True
001_D_07,大润发,"['006_U_38', '022_U_40', '004_U_28', '001_D_06']",1,下行,7,118.020417,37.385671,True
001_D_08,姜家小区,"['016_D_05', '006_U_41', '001_U_32', '023_U_28', '001_U_31']",1,下行,8,118.026202,37.386103,True
002_U_24,北海馨居,['002_U_25'],2,上行,24,118.015479,37.419428,True
002_U_25,英天律师事务所,"['002_U_26', '002_U_24']",2,上行,25,118.012213,37.418943,True
002_U_26,滨海嘉园,"['105_U_29', '002_U_25', '007_U_02', '002_U_27']",2,上行,26,118.0099,37.416672,True
002_U_27,北海花园北门,"['002_U_26', '026_U_55', '007_U_04']",2,上行,27,118.0075,37.413944,True
002_U_28,职业学院,[],2,上行,28,118.000454,37.413426,True
002_U_29,华清园,[],2,上行,29,117.99573,37.412185,True
002_U_30,万达广场,"['029_U_31', '113_U_25', '002_U_31']",2,上行,30,117.996497,37.404631,True
002_U_31,吉泰阳光西门,"['002_U_32', '026_U_51', '002_U_30']",2,上行,31,117.996779,37.401757,True
002_U_32,吉泰阳光,"['032_U_29', '002_U_31', '036_U_17']",2,上行,32,117.997952,37.39804,True
002_U_33,园林小区,"['006_U_32', '032_U_29', '006_U_33', '002_U_34']",2,上行,33,118.000236,37.394095,True
002_U_34,青藤苑酒店东门,"['006_U_32', '002_U_33', '002_U_35', '006_U_33']",2,上行,34,118.00059,37.39073,True
002_U_35,菜刘居委会,"['006_U_32', '030_U_38', '032_U_28', '002_U_34', '002_U_36', '030_U_39']",2,上行,35,118.000862,37.388263,True
002_U_36,美食街,"['002_U_35', '030_U_38', '002_U_37', '032_U_28', '030_U_37', '106_U_26', '030_U_39']",2,上行,36,118.001131,37.386048,True
002_U_37,银座黄河店东门,"['002_U_38', '030_U_36', '106_U_26', '002_U_36', '101_U_23', '101_U_22']",2,上行,37,118.001551,37.38235,True
002_U_38,一小宿舍,"['029_U_19', '002_U_37', '029_U_20', '101_U_23', '101_U_22']",2,上行,38,118.001814,37.379701,True
002_U_39,市西办事处,"['029_U_19', '002_U_40', '029_U_20', '102_U_28', '003_U_02']",2,上行,39,118.002401,37.37568,True
002_U_40,徐家,"['003_U_02', '002_U_39', '102_U_28']",2,上行,40,118.002613,37.372968,True
002_U_41,公路工程处,"['009_U_43', '018_U_13']",2,上行,41,118.003106,37.368952,True
002_U_42,南杨东站,"['002_U_43', '031_U_29', '018_U_13']",2,上行,42,118.00354,37.364937,True
002_U_43,第一中学,"['002_U_42', '031_U_29']",2,上行,43,118.003799,37.362589,True
003_U_01,滨医西门,"['005_U_69', '009_U_44', '023_U_34']",3,上行,1,118.009243,37.371431,True
003_U_02,税务局宿舍,"['029_U_19', '002_U_39', '002_U_40']",3,上行,2,118.000916,37.373326,True
003_U_03,德坤华府,"['030_U_34', '003_D_05']",3,上行,3,117.989287,37.376684,True
003_U_04,怡华苑,"['009_U_38', '107_U_13']",3,上行,4,117.97752,37.374352,True
003_U_05,杜店办事处,[],3,上行,5,117.951875,37.373174,True
003_U_06,站前家具城,"['009_U_32', '016_U_10', '010_U_33']",3,上行,6,117.936042,37.37131,True
003_U_07,汽车总站,['016_U_10'],3,上行,7,117.936874,37.366846,True
003_D_05,张八棍居委会,"['003_U_03', '030_U_35']",3,下行,5,117.993134,37.376631,True
004_U_19,北杨居委会,['001_U_25'],4,上行,19,118.019904,37.419992,True
004_U_25,王兰家,"['001_U_30', '001_U_29', '023_U_27']",4,上行,25,118.026117,37.394156,True
004_U_26,政和街,"['004_U_27', '023_U_27', '007_U_09']",4,上行,26,118.021277,37.393815,True
004_U_27,胜滨小区,"['004_U_28', '004_U_26']",4,上行,27,118.018481,37.391393,True
004_U_28,滨南小区,"['001_D_06', '004_U_27', '001_D_07', '022_U_40', '006_U_38']",4,上行,28,118.018871,37.387607,True
004_U_31,银座商城,"['001_D_05', '006_U_40', '001_D_04']",4,上行,31,118.021332,37.378364,True
004_U_32,富泽商贸街,"['001_U_33', '001_D_02', '006_U_41', '030_U_45', '001_U_34']",4,上行,32,118.027219,37.378821,True
005_U_57,华晨小区,"['012_U_12', '001_U_27']",5,上行,57,118.021305,37.4043,True
005_U_58,宣家小区,"['007_U_05', '007_U_07', '012_U_13', '026_U_48']",5,上行,58,118.01436,37.403881,True
005_U_59,观湖花园,"['007_U_05', '005_U_60', '026_U_48']",5,上行,59,118.009912,37.403548,True
005_U_60,二十里堡小区,"['107_U_25', '026_U_50', '005_U_59', '036_U_19']",5,上行,60,118.006735,37.402101,True
005_U_61,市路灯处,"['024_U_23', '107_U_25', '036_U_18', '036_U_19']",5,上行,61,118.00751,37.397822,True
005_U_62,安康家园,"['024_U_23', '006_U_34', '005_U_63', '006_U_35']",5,上行,62,118.00806,37.39376,True
005_U_63,环卫处,"['024_U_23', '005_U_64', '006_U_34', '030_U_41', '030_U_40', '006_U_35', '005_U_62']",5,上行,63,118.008598,37.390567,True
005_U_64,人民医院,"['030_U_41', '005_U_63', '022_U_42', '030_U_40', '005_U_65', '106_U_27']",5,上行,64,118.009213,37.387125,True
005_U_65,贵苑大酒店,"['005_U_64', '030_U_41', '022_U_42', '033_U_18', '101_U_24', '101_U_25', '106_U_27']",5,上行,65,118.009851,37.38397,True
005_U_66,安达驾校,"['005_U_67', '101_U_24', '101_U_25', '018_U_18']",5,上行,66,118.009264,37.379367,True
005_U_67,汽贸宿舍,"['005_U_66', '102_U_28', '018_U_18']",5,上行,67,118.008297,37.376218,True
005_U_69,自来水公司,"['005_U_70', '009_U_43', '003_U_01', '009_U_44']",5,上行,69,118.009052,37.369512,True
005_U_70,翔和家苑,"['005_U_71', '005_U_69', '009_U_44']",5,上行,70,118.009383,37.366824,True
005_U_71,逸夫小学长江一路校区,['005_U_70'],5,上行,71,118.008342,37.364063,True
006_U_21,社会养老服务中心,[],6,上行,21,117.948836,37.419444,True
006_U_22,人民医院西院区,[],6,上行,22,117.956136,37.416781,True
006_U_23,望海花园西门,['106_U_14'],6,上行,23,117.963407,37.408776,True
006_U_24,滨州大饭店,[],6,上行,24,117.961026,37.40452,True
006_U_25,中海天地桥,['006_U_26'],6,上行,25,117.956575,37.397161,True
006_U_26,中海,['006_U_25'],6,上行,26,117.95521,37.394314,True
006_U_27,中海公园南门,"['105_U_14', '017_U_26']",6,上行,27,117.962347,37.3917,True
006_U_28,公共资源交易中心,"['011_U_06', '017_U_29', '011_U_05']",6,上行,28,117.97138,37.391707,True
006_U_29,北镇中学,"['017_U_31', '017_U_30']",6,上行,29,117.978635,37.391743,True
006_U_30,学院北门,[],6,上行,30,117.987632,37.39178,True
006_U_31,锦绣城,['112_U_19'],6,上行,31,117.993543,37.391739,True
006_U_32,青藤苑酒店,"['002_U_33', '002_U_35', '002_U_34', '006_U_33', '032_U_29']",6,上行,32,117.999199,37.391876,True
006_U_33,建设小区,"['006_U_32', '002_U_33', '002_U_34']",6,上行,33,118.002841,37.392126,True
006_U_34,王家,"['024_U_23', '005_U_63', '006_U_35', '005_U_62']",6,上行,34,118.006943,37.39244,True
006_U_35,市干休所,"['024_U_23', '006_U_34', '005_U_63', '026_U_45', '026_U_46', '005_U_62']",6,上行,35,118.010496,37.392709,True
006_U_36,区公安局,"['026_U_46', '026_U_45']",6,上行,36,118.014656,37.393013,True
006_U_38,滨南社区,"['004_U_28', '022_U_40', '001_D_07', '001_D_06']",6,上行,38,118.018956,37.387403,True
006_U_40,新华街,"['016_D_05', '006_U_41', '004_U_31', '030_U_45', '001_D_05']",6,上行,40,118.022847,37.381913,True
006_U_41,华升盛世春秋,"['001_U_33', '001_D_08', '016_D_05', '001_U_32', '030_U_45', '004_U_32', '006_U_40']",6,上行,41,118.026297,37.382208,True
006_U_44,五四广场,"['001_D_02', '010_U_53', '009_U_47', '011_U_30', '106_U_36', '001_U_34']",6,上行,44,118.02948,37.37271,True
007_U_01,职业学院东门,['007_U_02'],7,上行,1,118.002596,37.417335,True
007_U_02,北海明珠,"['002_U_26', '007_U_01']",7,上行,2,118.006484,37.417949,True
007_U_04,南蔺居委会,"['105_U_29', '026_U_55', '002_U_27', '113_U_28']",7,上行,4,118.010483,37.411349,True
007_U_05,宣家小区西门,"['026_U_48', '005_U_59', '005_U_58']",7,上行,5,118.011094,37.40564,True
007_U_07,瑄嘉名都,"['012_U_13', '005_U_58', '107_U_26']",7,上行,7,118.017382,37.401858,True
007_U_08,清怡小学东校区,"['107_U_26', '007_U_09']",7,上行,8,118.017775,37.397776,True
007_U_09,清怡市场,"['007_U_08', '004_U_26']",7,上行,9,118.017984,37.395751,True
007_U_15,黄金大厦,"['009_U_46', '023_U_33', '001_D_03', '001_D_04', '007_U_16']",7,上行,15,118.020501,37.37365,True
007_U_16,蒲园,"['009_U_46', '007_U_15', '007_U_17']",7,上行,16,118.020841,37.369759,True
007_U_17,磬露园,"['007_U_18', '007_U_16', '009_U_45']",7,上行,17,118.018992,37.368527,True
007_U_18,高杜市场,"['007_U_17', '009_U_45']",7,上行,18,118.015166,37.367615,True
007_U_19,供水花园,[],7,上行,19,118.012603,37.364411,True
009_U_28,滨魏二区,[],9,上行,28,117.916175,37.379794,True
009_U_29,二单宿舍,['009_U_30'],9,上行,29,117.929789,37.379841,True
009_U_30,杜店北街,"['009_U_29', '009_U_31']",9,上行,30,117.933591,37.379854,True
009_U_31,明日星城小区,"['017_U_15', '009_U_30']",9,上行,31,117.936258,37.377346,True
009_U_32,汽车总站广场,"['003_U_06', '031_U_17', '010_U_33']",9,上行,32,117.937112,37.373202,True
009_U_33,天阳小区,"['112_U_05', '010_U_36']",9,上行,33,117.944884,37.373582,True
009_U_35,市税务局二路办公区,"['032_U_16', '025_U_31']",9,上行,35,117.957021,37.372393,True
009_U_36,百世儿童医院,['105_U_07'],9,上行,36,117.962714,37.371762,True
009_U_37,至尊门第南门,"['011_U_11', '011_U_12']",9,上行,37,117.968381,37.371432,True
009_U_38,碧林花园,"['011_U_17', '003_U_04']",9,上行,38,117.978904,37.371491,True
009_U_39,新光小区,"['012_U_30', '009_U_40']",9,上行,39,117.986364,37.371574,True
009_U_40,双拥广场,['009_U_39'],9,上行,40,117.990076,37.371586,True
009_U_41,利世医院,"['009_U_42', '018_U_12', '029_U_18']",9,上行,41,117.994824,37.37055,True
009_U_42,建工宿舍,"['009_U_41', '029_U_17', '018_U_13', '029_U_18']",9,上行,42,117.998581,37.369275,True
009_U_43,广兴医院,"['002_U_41', '005_U_69', '102_U_28']",9,上行,43,118.005153,37.369689,True
009_U_44,滨医附院,"['005_U_70', '005_U_69', '003_U_01']",9,上行,44,118.010958,37.370145,True
009_U_45,剧场街农贸市场,"['007_U_18', '007_U_17']",9,上行,45,118.015998,37.370507,True
009_U_46,区第二实验小学,"['009_U_47', '007_U_15', '007_U_16', '001_D_03']",9,上行,46,118.023482,37.371078,True
009_U_47,五四转盘,"['009_U_46', '006_U_44', '010_U_53']",9,上行,47,118.027006,37.371323,True
010_U_31,明珠广场,[],10,上行,31,117.921981,37.369267,True
010_U_32,四通商贸城,[],10,上行,32,117.928043,37.37106,True
010_U_33,开发区中心医院,"['003_U_06', '009_U_32']",10,上行,33,117.933399,37.372529,True
010_U_36,秦皇丽景西门,"['009_U_33', '112_U_05']",10,上行,36,117.947031,37.371286,True
010_U_37,印象江南,"['025_U_31', '025_U_30']",10,上行,37,117.953067,37.367291,True
010_U_38,马坊市场,"['010_U_39', '025_U_31', '025_U_30']",10,上行,38,117.957288,37.3673,True
010_U_39,渤海名园,"['010_U_40', '010_U_38']",10,上行,39,117.961071,37.367318,True
010_U_40,实验学校南校区,"['011_U_12', '010_U_39']",10,上行,40,117.964777,37.367321,True
010_U_41,天场瑞府,"['011_U_12', '010_U_42']",10,上行,41,117.969545,37.367324,True
010_U_42,市委党校,"['111_U_02', '010_U_41']",10,上行,42,117.972427,37.369524,True
010_U_53,六街蔬菜市场,"['009_U_47', '106_D_02', '006_U_44', '106_U_36', '106_U_37']",10,上行,53,118.030135,37.370628,True
011_U_01,市政务服务中心,"['017_U_36', '017_U_37']",11,上行,1,117.983654,37.40329,True
011_U_02,滨州乒乓球馆,"['017_U_34', '011_U_03']",11,上行,2,117.980854,37.398044,True
011_U_03,朝阳小区,['011_U_02'],11,上行,3,117.977698,37.397948,True
011_U_04,体育家园,"['105_U_18', '011_D_37']",11,上行,4,117.972624,37.398008,True
011_U_05,格林春天,"['011_D_37', '006_U_28']",11,上行,5,117.969305,37.395017,True
011_U_06,市教育局,"['006_U_28', '017_U_28', '011_U_07', '017_U_27']",11,上行,6,117.968788,37.389808,True
011_U_07,滨化家园,"['011_U_08', '011_U_06', '017_U_27', '102_U_13', '112_U_14', '017_U_28']",11,上行,7,117.968491,37.387151,True
011_U_08,市档案馆,"['102_U_13', '112_U_14', '011_U_09', '011_U_07', '017_U_28']",11,上行,8,117.968299,37.384425,True
011_U_09,市政大楼西门,"['011_U_08', '102_U_13', '112_U_14', '011_U_10', '030_U_28']",11,上行,9,117.96808,37.382791,True
011_U_10,传媒集团,"['107_U_12', '030_U_28', '107_U_11', '011_U_09']",11,上行,10,117.967696,37.378893,True
011_U_11,至尊门第西门,"['009_U_37', '107_U_11', '107_U_12']",11,上行,11,117.967286,37.374499,True
011_U_12,市委党校西门,"['010_U_40', '009_U_37', '010_U_41']",11,上行,12,117.966876,37.370256,True
011_U_14,泰山名郡,"['111_U_02', '011_U_15', '012_U_32']",11,上行,14,117.974993,37.363072,True
011_U_15,双湖家园,"['111_D_33', '011_U_16', '012_U_32', '011_U_14']",11,上行,15,117.977973,37.363889,True
011_U_16,碧林花园南门,"['111_U_02', '011_U_15', '111_D_33', '012_U_32']",11,上行,16,117.978331,37.365994,True
011_U_17,彩虹湖,['009_U_38'],11,上行,17,117.981209,37.37077,True
011_U_30,郝家便民市场,"['106_U_36', '001_U_34', '001_D_02', '006_U_44']",11,上行,30,118.03036,37.375409,True
011_D_37,滨州植物园,"['011_U_04', '011_U_05']",11,下行,37,117.969741,37.396937,True
012_U_12,公交总公司,"['005_U_57', '113_U_29', '012_U_13', '001_U_27']",12,上行,12,118.020165,37.407793,True
012_U_13,新贵公馆,"['012_U_12', '007_U_07', '005_U_58']",12,上行,13,118.01709,37.405342,True
012_U_30,彩虹景苑,['009_U_39'],12,上行,30,117.984871,37.36857,True
012_U_32,亚太商贸街,"['111_U_02', '011_U_15', '011_U_16', '011_U_14']",12,上行,32,117.976177,37.366053,True
016_U_03,胜利油建七分公司,[],16,上行,3,117.936253,37.34978,True
016_U_04,鲁德曲轴,[],16,上行,4,117.932722,37.352944,True
016_U_05,中油燃气,['016_U_06'],16,上行,5,117.926352,37.352876,True
016_U_06,一汽大众,['016_U_05'],16,上行,6,117.924064,37.355658,True
016_U_07,拉菲公馆,[],16,上行,7,117.924082,37.361256,True
016_U_08,熙悦府,[],16,上行,8,117.929824,37.36298,True
016_U_10,渤海活塞,"['003_U_06', '003_U_07']",16,上行,10,117.9363,37.368494,True
016_D_05,通康医院,"['001_D_08', '006_U_41', '001_U_32', '030_U_45', '006_U_40']",16,下行,5,118.025504,37.384254,True
017_U_12,纺苑二区,[],17,上行,12,117.921006,37.379841,True
017_U_15,水清木华,"['106_U_05', '017_U_16', '009_U_31']",17,上行,15,117.937642,37.379847,True
017_U_16,华夏银行,['017_U_15'],17,上行,16,117.941358,37.379895,True
017_U_17,领域尚城,"['112_U_05', '102_U_07', '030_U_24', '017_U_18']",17,上行,17,117.947056,37.378176,True
017_U_18,纺苑小区,"['112_U_05', '030_U_24', '017_U_17']",17,上行,18,117.949033,37.376964,True
017_U_19,市自然资源规划局,"['030_U_25', '032_U_16', '017_U_20']",17,上行,19,117.956917,37.37695,True
017_U_20,齐鲁花园,"['032_U_18', '017_U_21', '017_U_19', '030_U_26', '107_U_10', '105_U_08']",17,上行,20,117.960159,37.376943,True
017_U_21,金融花园,"['032_U_18', '017_U_22', '017_U_20', '107_U_11', '030_U_26', '107_U_10', '105_U_08']",17,上行,21,117.962247,37.377948,True
017_U_22,市交通运输局,"['102_U_10', '032_U_18', '017_U_23', '017_U_21', '017_U_24', '030_U_26', '107_U_10']",17,上行,22,117.962194,37.380583,True
017_U_23,馨露佳园,"['102_U_10', '032_U_18', '017_U_22', '017_U_24', '030_U_26', '102_U_12']",17,上行,23,117.962249,37.381956,True
017_U_24,交通丽苑,"['102_U_10', '102_U_13', '017_U_23', '017_U_22', '017_U_25', '102_U_12', '102_U_09']",17,上行,24,117.962208,37.383729,True
017_U_25,阳光贵苑,"['102_U_13', '102_U_10', '017_U_26', '105_U_14', '017_U_24', '102_U_12', '102_U_09']",17,上行,25,117.962248,37.38625,True
017_U_26,银座中海店,"['017_U_27', '105_U_14', '006_U_27', '017_U_25', '102_U_12']",17,上行,26,117.963087,37.388111,True
017_U_27,实验学校,"['011_U_06', '102_U_13', '017_U_26', '011_U_07', '017_U_28']",17,上行,27,117.965835,37.388039,True
017_U_28,聚鑫园,"['011_U_08', '011_U_06', '017_U_27', '112_U_14', '017_U_29', '011_U_07']",17,上行,28,117.969339,37.388117,True
017_U_29,教育园,"['017_U_30', '102_U_17', '017_U_28', '006_U_28']",17,上行,29,117.973031,37.388135,True
017_U_30,翰墨园,"['102_U_17', '006_U_29', '017_U_29']",17,上行,30,117.975539,37.390118,True
017_U_31,翰文苑,['006_U_29'],17,上行,31,117.976205,37.394204,True
017_U_34,奥林水岸,"['011_U_02', '017_U_35']",17,上行,34,117.982505,37.39789,True
017_U_35,京学幼儿园,"['017_U_36', '017_U_34']",17,上行,35,117.984922,37.399144,True
017_U_36,韵和嘉苑,"['011_U_01', '017_U_37', '017_U_35']",17,上行,36,117.986445,37.402485,True
017_U_37,鲁北技师学院,"['017_U_36', '011_U_01']",17,上行,37,117.985649,37.40617,True
018_U_01,馨露鑫苑,"['031_U_22', '032_U_09', '031_U_21', '025_U_29']",18,上行,1,117.955207,37.355792,True
018_U_02,下坡李,[],18,上行,2,117.962986,37.352765,True
018_U_03,阳光城,[],18,上行,3,117.974778,37.352842,True
018_U_04,北孝居委会,['018_U_05'],18,上行,4,117.98001,37.352873,True
018_U_05,双湖贵苑,"['018_U_06', '018_U_04']",18,上行,5,117.983109,37.355153,True
018_U_06,市审计局,"['018_U_05', '018_U_07']",18,上行,6,117.983156,37.358404,True
018_U_07,军分区,"['018_U_06', '081_U_18']",18,上行,7,117.985014,37.359046,True
018_U_08,第八中学,[],18,上行,8,117.988894,37.35709,True
018_U_09,边检站,['018_U_10'],18,上行,9,117.992726,37.358757,True
018_U_10,南杨大集,"['018_U_09', '031_U_28', '081_U_19']",18,上行,10,117.9927,37.360956,True
018_U_11,东岳家园,"['111_U_05', '081_U_19', '031_U_28', '018_U_12']",18,上行,11,117.992615,37.365203,True
018_U_12,春晖都市花园,"['009_U_41', '031_U_28', '018_U_11', '029_U_17', '029_U_16']",18,上行,12,117.994131,37.366666,True
018_U_13,南杨居委会,"['031_U_29', '002_U_42', '009_U_42', '002_U_41', '029_U_17', '029_U_16']",18,上行,13,118.000482,37.36718,True
018_U_18,市特检所,"['005_U_66', '023_U_34', '005_U_67', '101_U_24', '101_U_25']",18,上行,18,118.010245,37.377553,True
018_U_19,颐园,"['023_U_33', '001_D_05', '001_D_04', '033_U_19']",18,上行,19,118.016736,37.378039,True
022_U_40,众成大厦,"['004_U_28', '001_D_06', '001_D_07', '033_U_18', '006_U_38']",22,上行,40,118.016797,37.385537,True
022_U_42,国医联合中医院,"['005_U_64', '030_U_41', '033_U_18', '005_U_65']",22,上行,42,118.011619,37.385044,True
023_U_27,胜滨小区东门,"['001_U_30', '023_U_28', '004_U_25', '004_U_26']",23,上行,27,118.024531,37.392022,True
023_U_28,姜家市场,"['001_U_31', '001_D_08', '023_U_27']",23,上行,28,118.0249,37.388435,True
023_U_33,剧场街市场农贸市场北门,"['018_U_19', '007_U_15', '001_D_04']",23,上行,33,118.01868,37.374607,True
023_U_34,滨州医学院,"['003_U_01', '018_U_18']",23,上行,34,118.012174,37.374115,True
024_U_11,闻鹊佳苑,"['024_U_12', '036_U_08']",24,上行,11,117.964175,37.417904,True
024_U_12,闻鹊佳苑北门,['024_U_11'],24,上行,12,117.965662,37.421365,True
024_U_13,喜鹊湖公园,[],24,上行,13,117.970324,37.421364,True
024_U_14,中医院西门,"['036_U_03', '024_U_15']",24,上行,14,117.981252,37.425518,True
024_U_15,中医院,"['036_U_03', '024_U_14', '033_U_06']",24,上行,15,117.982541,37.424628,True
024_U_16,车管所南,"['112_U_26', '024_U_17']",24,上行,16,117.99276,37.42374,True
024_U_17,职业学院西门,['024_U_16'],24,上行,17,117.994858,37.420425,True
024_U_19,市农村农业局,['026_U_50'],24,上行,19,118.002732,37.406374,True
024_U_23,安康花园,"['006_U_34', '005_U_61', '005_U_63', '006_U_35', '005_U_62']",24,上行,23,118.008103,37.393917,True
025_U_25,开发区一中,"['113_D_37', '025_U_26']",25,上行,25,117.94159,37.352759,True
025_U_26,荷兰风情村,"['032_U_11', '113_D_37', '025_U_27', '025_U_25']",25,上行,26,117.944633,37.35277,True
025_U_27,秦淮人家,"['032_U_11', '025_U_26']",25,上行,27,117.947902,37.352767,True
025_U_29,上海世家,"['031_U_22', '018_U_01']",25,上行,29,117.955478,37.358824,True
025_U_30,海通花园,"['010_U_38', '010_U_37', '025_U_31']",25,上行,30,117.955467,37.365784,True
025_U_31,马坊馨苑,"['009_U_35', '010_U_38', '010_U_37', '025_U_30']",25,上行,31,117.955483,37.369143,True
026_U_45,银座渤海店,"['026_U_46', '006_U_35', '006_U_36']",26,上行,45,118.012872,37.391259,True
026_U_46,区检察院宿舍,"['006_U_35', '026_U_47', '026_U_45', '006_U_36']",26,上行,46,118.012481,37.39387,True
026_U_47,颐馨园,"['026_U_46', '107_U_26']",26,上行,47,118.012145,37.39684,True
026_U_48,裕华苑,"['007_U_05', '005_U_59', '005_U_58']",26,上行,48,118.011629,37.401966,True
026_U_50,彭李农贸市场,"['026_U_51', '005_U_60', '024_U_19']",26,上行,50,118.004136,37.403168,True
026_U_51,麒麟阁南门,"['026_U_50', '113_U_25', '002_U_31']",26,上行,51,118.000342,37.402885,True
026_U_55,北海花园,"['007_U_04', '002_U_27']",26,上行,55,118.007873,37.410416,True
029_U_15,南杨大集东门,"['031_U_28', '031_U_29']",29,上行,15,117.997415,37.3606,True
029_U_16,南杨海鲜烧烤城,"['031_U_29', '031_U_28', '018_U_12', '029_U_17', '018_U_13']",29,上行,16,117.997531,37.365204,True
029_U_17,龙盛花苑,"['029_U_18', '009_U_42', '018_U_12', '018_U_13', '029_U_16']",29,上行,17,117.997579,37.367619,True
029_U_18,渤海花园,"['009_U_41', '009_U_42', '029_U_17']",29,上行,18,117.997668,37.370865,True
029_U_19,康家居委会,"['002_U_38', '002_U_39', '029_U_20', '081_U_24', '003_U_02', '101_U_22']",29,上行,19,118.000005,37.376883,True
029_U_20,人寿保险公司,"['029_U_19', '002_U_38', '002_U_39', '101_U_23']",29,上行,20,118.003822,37.377159,True
029_U_31,爱琴海购物公园,['002_U_30'],29,上行,31,117.993559,37.406206,True
029_U_32,河畔盛景,[],29,上行,32,117.987922,37.411851,True
030_U_24,市场监督管理局,"['102_U_07', '017_U_18', '017_U_17']",30,上行,24,117.949878,37.379878,True
030_U_25,市财政局,"['032_U_18', '103_U_07', '017_U_19', '030_U_26']",30,上行,25,117.956772,37.3799,True
030_U_26,市公路发展中心,"['030_U_25', '102_U_10', '032_U_18', '017_U_22', '017_U_23', '017_U_21', '017_U_20']",30,上行,26,117.960029,37.379934,True
030_U_28,市政广场,"['107_U_12', '011_U_10', '011_U_09']",30,上行,28,117.969079,37.379925,True
030_U_29,市政大楼东门,['032_U_21'],30,上行,29,117.973165,37.381078,True
030_U_30,黄河小区一区,"['102_U_17', '030_U_31']",30,上行,30,117.976042,37.384977,True
030_U_31,新滨公园东门,['030_U_30'],30,上行,31,117.977185,37.382337,True
030_U_32,许家居委会,['107_U_13'],30,上行,32,117.98136,37.38,True
030_U_33,山东航空学院,['030_U_34'],30,上行,33,117.986076,37.379991,True
030_U_34,马家小区,"['003_U_03', '030_U_35', '030_U_33']",30,上行,34,117.989694,37.379998,True
030_U_35,区教育和体育局,"['030_U_34', '003_D_05']",30,上行,35,117.992794,37.380009,True
030_U_36,全福元,"['030_U_37', '081_U_24', '002_U_37', '101_U_22']",30,上行,36,117.997832,37.381771,True
030_U_37,青藤源大饭店,"['032_U_28', '002_U_36', '030_U_38', '030_U_36']",30,上行,37,117.997906,37.384978,True
030_U_38,泰达燃气公司,"['002_U_35', '032_U_28', '030_U_37', '002_U_36', '030_U_39']",30,上行,38,117.99877,37.386526,True
030_U_39,菜刘家园,"['002_U_35', '030_U_38', '032_U_28', '106_U_26', '002_U_36']",30,上行,39,118.001827,37.386754,True
030_U_40,第六小学,"['005_U_64', '030_U_41', '005_U_63', '106_U_27']",30,上行,40,118.007084,37.387125,True
030_U_41,人民医院南门,"['005_U_64', '005_U_63', '022_U_42', '030_U_40', '005_U_65']",30,上行,41,118.011002,37.38746,True
030_U_45,金座豪庭,"['001_U_33', '016_D_05', '006_U_41', '004_U_32', '006_U_40']",30,上行,45,118.0257,37.380788,True
031_U_17,汽车总站东门,"['009_U_32', '031_U_18']",31,上行,17,117.940231,37.371217,True
031_U_18,公交发车区,['031_U_17'],31,上行,18,117.940272,37.369022,True
031_U_19,信达置业,[],31,上行,19,117.941653,37.362976,True
031_U_20,生龙欢乐世界,[],31,上行,20,117.947078,37.360156,True
031_U_21,馨露鑫苑北门,['018_U_01'],31,上行,21,117.95161,37.357056,True
031_U_22,吾悦华府,"['025_U_29', '018_U_01']",31,上行,22,117.958089,37.356996,True
031_U_23,泰山名郡南门,[],31,上行,23,117.973099,37.357075,True
031_U_24,双湖豪庭南门,[],31,上行,24,117.978832,37.357058,True
031_U_28,优抚医院,"['018_U_12', '018_U_10', '029_U_16', '018_U_11', '029_U_15']",31,上行,28,117.994475,37.363146,True
031_U_29,南杨南站,"['002_U_42', '029_U_16', '018_U_13', '029_U_15', '002_U_43']",31,上行,29,118.000181,37.363321,True
032_U_09,馨露鑫苑南门,['018_U_01'],32,上行,9,117.953078,37.352959,True
032_U_11,四季花城,"['025_U_26', '025_U_27']",32,上行,11,117.947197,37.355352,True
032_U_13,半岛蓝湾,[],32,上行,13,117.951441,37.362995,True
032_U_16,城市枫景,"['009_U_35', '017_U_19']",32,上行,16,117.955507,37.375419,True
032_U_18,市公路服务中心,"['030_U_25', '102_U_10', '017_U_23', '017_U_22', '017_U_21', '017_U_20', '030_U_26']",32,上行,18,117.959949,37.379962,True
032_U_21,新滨公园,['030_U_29'],32,上行,21,117.973421,37.379986,True
032_U_28,学苑花园,"['002_U_35', '030_U_38', '030_U_37', '002_U_36', '030_U_39']",32,上行,28,117.997961,37.387412,True
032_U_29,泰和家园,"['006_U_32', '002_U_33', '036_U_17', '002_U_32']",32,上行,29,117.997651,37.395501,True
033_U_05,新语华庭,"['036_U_03', '033_U_06']",33,上行,5,117.978727,37.421379,True
033_U_06,丽水花园,"['033_U_05', '036_U_03', '024_U_15']",33,上行,6,117.982719,37.421372,True
033_U_18,樊家巷农贸市场,"['022_U_42', '022_U_40', '101_U_25', '005_U_65']",33,上行,18,118.013464,37.383334,True
033_U_19,第三中学,"['018_U_19', '001_D_05', '001_D_06']",33,上行,19,118.018223,37.381653,True
036_U_01,安兴花园,[],36,上行,1,117.986157,37.427918,True
036_U_03,丽水花园西门,"['033_U_05', '024_U_14', '024_U_15', '033_U_06']",36,上行,3,117.981287,37.423837,True
036_U_08,阖裕花园,['024_U_11'],36,上行,8,117.966597,37.416834,True
036_U_09,大河新城,[],36,上行,9,117.973418,37.416828,True
036_U_10,滨州特殊教育学校,['036_U_11'],36,上行,10,117.981196,37.416822,True
036_U_11,康复培训中心,['036_U_10'],36,上行,11,117.983865,37.41684,True
036_U_17,东方文化商业街,"['002_U_32', '032_U_29', '036_U_18']",36,上行,17,118.000337,37.398182,True
036_U_18,李南蒲新区,"['005_U_61', '036_U_17']",36,上行,18,118.00397,37.398436,True
036_U_19,锦城大厦,"['005_U_61', '107_U_25', '005_U_60']",36,上行,19,118.008241,37.398766,True
036_U_28,第三小学,"['001_U_32', '001_U_33']",36,上行,28,118.030623,37.382554,True
081_U_18,武警支队教导队,"['081_U_19', '018_U_07']",81,上行,18,117.987726,37.361058,True
081_U_19,东岳家园南门,"['111_U_05', '018_U_10', '018_U_11', '081_U_18', '111_U_04']",81,上行,19,117.989744,37.363103,True
081_U_24,五岳广场,"['029_U_19', '030_U_36', '101_U_22']",81,上行,24,117.997756,37.378192,True
101_U_22,银座黄河店,"['029_U_19', '002_U_38', '002_U_37', '030_U_36', '081_U_24']",101,上行,22,117.999979,37.380269,True
101_U_23,彭李小区,"['002_U_38', '002_U_37', '029_U_20']",101,上行,23,118.004079,37.380587,True
101_U_24,彭李街道办事处,"['005_U_66', '018_U_18', '101_U_25', '005_U_65', '106_U_27']",101,上行,24,118.008167,37.380881,True
101_U_25,建设银行营业部,"['005_U_66', '033_U_18', '018_U_18', '101_U_24', '005_U_65']",101,上行,25,118.010732,37.38109,True
102_U_07,中海家苑,"['030_U_24', '017_U_17']",102,上行,7,117.947733,37.381912,True
102_U_08,房投置业广场,"['103_U_07', '103_U_08']",102,上行,8,117.952452,37.384922,True
102_U_09,金财苑小区,"['103_U_07', '102_U_10', '017_U_24', '017_U_25', '102_U_12', '103_U_08']",102,上行,9,117.959226,37.384577,True
102_U_10,交通花园,"['032_U_18', '017_U_22', '017_U_23', '017_U_24', '017_U_25', '030_U_26', '102_U_12', '102_U_09']",102,上行,10,117.959984,37.383317,True
102_U_12,鑫苑小区,"['102_U_13', '102_U_10', '017_U_26', '017_U_23', '017_U_24', '017_U_25', '102_U_09']",102,上行,12,117.962894,37.384958,True
102_U_13,同馨家园,"['011_U_08', '017_U_27', '112_U_14', '011_U_09', '017_U_24', '017_U_25', '011_U_07', '102_U_12']",102,上行,13,117.965628,37.384957,True
102_U_17,黄河小区二区,"['017_U_30', '017_U_29', '030_U_30']",102,上行,17,117.974032,37.387312,True
102_U_28,实验初中部,"['005_U_67', '002_U_39', '002_U_40', '009_U_43']",102,上行,28,118.005808,37.373592,True
103_U_07,中海大厦,"['030_U_25', '102_U_08', '102_U_09', '103_U_08']",103,上行,7,117.95561,37.382871,True
103_U_08,金融大厦,"['103_U_07', '103_U_09', '102_U_08', '102_U_09']",103,上行,8,117.95554,37.38603,True
103_U_09,丽景新园,['103_U_08'],103,上行,9,117.957163,37.388098,True
105_U_07,新高都,"['107_U_10', '009_U_36', '105_U_08']",105,上行,7,117.962235,37.373208,True
105_U_08,金茂国际,"['017_U_21', '105_U_07', '017_U_20', '107_U_11', '107_U_10']",105,上行,8,117.962215,37.375871,True
105_U_14,文馨家园,"['006_U_27', '017_U_25', '017_U_26']",105,上行,14,117.96227,37.39005,True
105_U_18,奥体中心,"['011_U_04', '105_U_19']",105,上行,18,117.970119,37.401062,True
105_U_19,滨州市博物馆,"['105_U_18', '106_U_15', '105_U_20']",105,上行,19,117.970377,37.403741,True
105_U_20,劳动小区,"['106_U_15', '105_U_21', '105_U_19']",105,上行,20,117.970778,37.407638,True
105_U_21,新庄居委会,"['106_U_15', '105_U_22', '105_U_20']",105,上行,21,117.974246,37.409429,True
105_U_22,张课居委会,"['105_U_23', '105_U_21']",105,上行,22,117.976078,37.408165,True
105_U_23,滨州市科技馆,['105_U_22'],105,上行,23,117.977988,37.405923,True
105_U_29,绿茵四季花城,"['002_U_26', '007_U_04', '113_U_28']",105,上行,29,118.012699,37.414158,True
105_U_30,滨南作业大队,"['001_U_25', '001_U_26', '113_U_29']",105,上行,30,118.018382,37.414567,True
106_U_05,北街家苑一区,['017_U_15'],106,上行,5,117.936698,37.382533,True
106_U_06,耀华大厦,[],106,上行,6,117.936867,37.387753,True
106_U_07,中海新苑,[],106,上行,7,117.93708,37.392847,True
106_U_08,实验学校西校区,[],106,上行,8,117.937093,37.39843,True
106_U_09,聚龙花园,['106_U_10'],106,上行,9,117.937162,37.403325,True
106_U_10,大尚家苑,"['106_U_11', '106_U_09']",106,上行,10,117.940238,37.4058,True
106_U_11,莲华学园,['106_U_10'],106,上行,11,117.944093,37.405803,True
106_U_12,东尚家苑,[],106,上行,12,117.9485,37.405842,True
106_U_13,会展中心,[],106,上行,13,117.955532,37.405826,True
106_U_14,望海花园,['006_U_23'],106,上行,14,117.965391,37.405844,True
106_U_15,滨州市图书馆,"['105_U_21', '105_U_19', '105_U_20']",106,上行,15,117.972605,37.405857,True
106_U_26,市司法局宿舍,"['002_U_36', '002_U_37', '030_U_39']",106,上行,26,118.002332,37.384376,True
106_U_27,彭集街道安民社区,"['005_U_64', '005_U_65', '030_U_40', '101_U_24']",106,上行,27,118.007045,37.384715,True
106_U_36,五四鑫苑,"['010_U_53', '103_U_31', '106_D_02', '006_U_44', '011_U_30', '106_U_37']",106,上行,36,118.031479,37.371705,True
107_U_10,西城华府,"['017_U_22', '017_U_21', '105_U_07', '017_U_20', '107_U_11', '105_U_08']",107,上行,10,117.963263,37.377005,True
107_U_11,国际大厦,"['011_U_11', '017_U_21', '011_U_10', '107_U_10', '105_U_08']",107,上行,11,117.965435,37.377017,True
107_U_12,至尊门第,"['011_U_11', '011_U_10', '030_U_28']",107,上行,12,117.969685,37.377049,True
107_U_13,湾刘小区,"['030_U_32', '003_U_04']",107,上行,13,117.980822,37.376597,True
107_U_25,锦程大厦,"['005_U_61', '005_U_60', '036_U_19']",107,上行,25,118.008092,37.398775,True
107_U_26,怡海小区,"['007_U_07', '026_U_47', '007_U_08']",107,上行,26,118.015154,37.399332,True
108_U_02,中海清瑞,[],108,上行,2,117.936048,37.361938,True
108_U_03,秦皇河社区,[],108,上行,3,117.936054,37.356237,True
109_U_15,四环五海公司,[],109,上行,15,117.912353,37.396689,True
109_U_16,中梁首府,['109_U_17'],109,上行,16,117.92162,37.395912,True
109_U_17,中海小学,['109_U_16'],109,上行,17,117.92371,37.392988,True
109_U_18,华翔苑,[],109,上行,18,117.923723,37.386187,True
111_U_02,亚泰商贸城,"['012_U_32', '011_U_16', '010_U_42', '011_U_14']",111,上行,2,117.974348,37.366027,True
111_U_04,市公安局,"['111_U_05', '081_U_19']",111,上行,4,117.988276,37.366165,True
111_U_05,东岳家园北门,"['018_U_11', '081_U_19', '111_U_04']",111,上行,5,117.989905,37.36632,True
111_D_33,市海洋发展渔业局,"['011_U_15', '011_U_16']",111,下行,33,117.979468,37.363119,True
112_U_05,南街家苑,"['009_U_33', '017_U_18', '017_U_17', '010_U_36']",112,上行,5,117.947206,37.374475,True
112_U_14,市实验幼儿园,"['011_U_08', '102_U_13', '011_U_09', '011_U_07', '017_U_28']",112,上行,14,117.969454,37.384967,True
112_U_19,田园牧歌,"['112_U_21', '006_U_31', '112_U_20']",112,上行,19,117.991996,37.39422,True
112_U_20,新河金都,"['112_U_21', '112_U_19']",112,上行,20,117.99199,37.396276,True
112_U_21,第六中学,"['112_U_20', '112_U_19']",112,上行,21,117.99319,37.397967,True
112_U_26,宝安驾校,"['112_D_07', '024_U_16']",112,上行,26,117.994215,37.425838,True
112_U_27,北海新城,['112_D_07'],112,上行,27,117.993244,37.429746,True
112_D_07,市车管所,"['112_U_26', '112_U_27']",112,下行,7,117.993443,37.427963,True
113_U_25,麒麟阁,"['026_U_51', '002_U_30']",113,上行,25,117.998144,37.406045,True
113_U_28,福佑佳苑,"['105_U_29', '007_U_04']",113,上行,28,118.013232,37.410679,True
113_U_29,公交总公司北门,"['012_U_12', '105_U_30', '001_U_26']",113,上行,29,118.01831,37.411023,True
113_U_30,东王新苑,[],113,上行,30,118.023776,37.411433,True
113_D_37,秦皇河公园,"['025_U_26', '025_U_25']",113,下行,37,117.944094,37.35013,True
